[  
   {  
      "id":"1",
      "name":"Bimmersport Automotive",
      "lat":"43.660524",
      "lng":"-79.682134",
      "address":"6780 Pacific Cir",
      "address2":"",
      "city":"Missisauga",
      "state":"ON",
      "postal":"L5T 1NB",
      "phone":"(905) 670-9200",
      "web":"http:\/\/www.bimmersport.ca",
      "hours1":"Mon-Sun 10am-6pm",
      "hours2":"",
      "hours3":""
   },
   {  
      "id":"2",
      "name":"Touge Tuning",
      "lat":"43.649049",
      "lng":"-79.660385",
      "address":"996 Westport Crescent",
      "address2":"",
      "city":"Missisauga",
      "state":"ON",
      "postal":"L5T 1G1",
      "phone":"(905) 405-0682",
      "web":"http:\/\/www.tougetuning.com",
      "hours1":"Mon-Sun 10am-6pm",
      "hours2":"",
      "hours3":""
   },
   {  
      "id":"3",
      "name":"Stockholm Automobile",
      "lat":"43.762989",
      "lng":"-79.478122",
      "address":"4478 Chesswood Dr #14",
      "address2":"",
      "city":"North York",
      "state":"ON",
      "postal":"M3J 2B9",
      "phone":"(647) 281-0340",
      "web":"",
      "hours1":"Mon-Sun 11am-10pm",
      "hours2":"",
      "hours3":""
   },
   {  
      "id":"4",
      "name":"Precision Tuning Motorsports",
      "lat":"43.822125",
      "lng":"-79.506592",
      "address":"8600 Keele St #46-47",
      "address2":"",
      "city":"Concord",
      "state":"ON",
      "postal":" L4K 4H8",
      "phone":"(905) 761-0233",
      "web":"http:\/\/precisiontuning.ca",
      "hours1":"Mon-Sun 9:30am-6pm",
      "hours2":"",
      "hours3":""
   }
]